[
    {
        "name": "Arcade Coffee Roasters",
        "city": "Riverside",
        "address": "3672 Chicago Ave",
        "coordinates": [
            33.97731760847481,
            -117.34820372799568
        ]
    },
    {
        "name": "7 Leaves Cafe",
        "city": "Riverside",
        "address": "1201 University Ave",
        "coordinates": [
            33.976867,
            -117.337619
        ]
    },
    {
        "name": "+Hp Potion",
        "city": "Riverside",
        "address": "3740 Iowa Ave",
        "coordinates": [
            33.977064,
            -117.339493
        ]
    },
    {
        "name": "KOKONUT - Masala Mischief",
        "city": "Riverside",
        "address": "1223 University Ave",
        "coordinates": [
            33.976081,
            -117.338181
        ]
    },
    {
        "name": "Tr\u00e0 Boba & Snack",
        "city": "Riverside",
        "address": "3740 Iowa Ave",
        "coordinates": [
            33.977064,
            -117.339493
        ]
    },
    {
        "name": "Tim Boba",
        "city": "Riverside",
        "address": "1450 University Ave",
        "coordinates": [
            33.97555,
            -117.34315
        ]
    },
    {
        "name": "Uncle Chuang's Bakery",
        "city": "Riverside",
        "address": "3740 Iowa Ave",
        "coordinates": [
            33.97711,
            -117.3395
        ]
    },
    {
        "name": "Starbucks",
        "city": "Riverside",
        "address": "1280 W Blaine St",
        "coordinates": [
            33.9827126,
            -117.3394934
        ]
    },
    {
        "name": "Mochinut",
        "city": "Riverside",
        "address": "1242 University Ave",
        "coordinates": [
            33.97524472417301,
            -117.3380628981971
        ]
    },
    {
        "name": "Ivans",
        "city": "Riverside",
        "address": "900 University Ave",
        "coordinates": [
            33.97337069002433,
            -117.33132388220902
        ]
    },
    {
        "name": "Lee's Sandwiches",
        "city": "Riverside",
        "address": "1889 University Ave",
        "coordinates": [
            33.9759789,
            -117.3525238
        ]
    },
    {
        "name": "Starbucks",
        "city": "Riverside",
        "address": "1303 University Ave",
        "coordinates": [
            33.9759799,
            -117.34027623
        ]
    },
    {
        "name": "R&B Tea - Riverside",
        "city": "Riverside",
        "address": "1889 University Ave",
        "coordinates": [
            33.975921,
            -117.352412
        ]
    },
    {
        "name": "Ding Tea Riverside",
        "city": "Riverside",
        "address": "1575 University Ave",
        "coordinates": [
            33.976160113863585,
            -117.34598656380552
        ]
    },
    {
        "name": "Cha2o Vietnamese Restaurant & Dessert Lounge - Riverside",
        "city": "Riverside",
        "address": "1400 University Ave",
        "coordinates": [
            33.975378,
            -117.34178
        ]
    },
    {
        "name": "Ten Ren's Tea Time",
        "city": "Riverside",
        "address": "1400 University Ave",
        "coordinates": [
            33.975392,
            -117.341769
        ]
    },
    {
        "name": "Krak Boba - Riverside",
        "city": "Riverside",
        "address": "3907 Chicago Ave",
        "coordinates": [
            33.974611,
            -117.349367
        ]
    },
    {
        "name": "Boba Fiend Tea House",
        "city": "Riverside",
        "address": "3375 Iowa Ave",
        "coordinates": [
            33.98077,
            -117.34002
        ]
    },
    {
        "name": "Emerbee's",
        "city": "Riverside",
        "address": "900 University Ave",
        "coordinates": [
            33.9769032548701,
            -117.328021123188
        ]
    },
    {
        "name": "The Coffee Bean & Tea Leaf",
        "city": "Riverside",
        "address": "900 University Blvd",
        "coordinates": [
            33.9745218474887,
            -117.328067635475
        ]
    },
    {
        "name": "The Bistro At Courtyard By Marriott Riverside/ucr Area",
        "city": "Riverside",
        "address": "1510 University Ave",
        "coordinates": [
            33.974945,
            -117.344765
        ]
    },
    {
        "name": "Boba Cafe",
        "city": "Riverside",
        "address": "1223 University Ave",
        "coordinates": [
            33.97625481413393,
            -117.33828790233201
        ]
    },
    {
        "name": "Freshh Donuts",
        "city": "Riverside",
        "address": "781 W Blaine St",
        "coordinates": [
            33.9831149,
            -117.3280099
        ]
    },
    {
        "name": "Lollicup Fresh - Riverside",
        "city": "Riverside",
        "address": "733 W Linden St",
        "coordinates": [
            33.97946869351535,
            -117.32666324112225
        ]
    },
    {
        "name": "Starbucks Coffee",
        "city": "Riverside",
        "address": "1280 W Blaine St",
        "coordinates": [
            33.982742,
            -117.339416
        ]
    },
    {
        "name": "Afters Ice Cream",
        "city": "Riverside",
        "address": "1201 University Ave",
        "coordinates": [
            33.97630709500345,
            -117.33751634135439
        ]
    },
    {
        "name": "Placita Riverside",
        "city": "Riverside",
        "address": "1805 University Ave",
        "coordinates": [
            33.97601,
            -117.35083
        ]
    },
    {
        "name": "Winchell's Donuts",
        "city": "Riverside",
        "address": "1705 University Ave",
        "coordinates": [
            33.97604,
            -117.34873
        ]
    },
    {
        "name": "Boba Tea House",
        "city": "Riverside",
        "address": "767 W Blaine St",
        "coordinates": [
            33.9835452608072,
            -117.327264400309
        ]
    },
    {
        "name": "Juice It Up!",
        "city": "Riverside",
        "address": "1201 University Ave",
        "coordinates": [
            33.9766702,
            -117.33775712564415
        ]
    },
    {
        "name": "Baguette Bakery & Cafe",
        "city": "Riverside",
        "address": "767 W Blaine St",
        "coordinates": [
            33.983632,
            -117.327555
        ]
    },
    {
        "name": "7-Eleven",
        "city": "Riverside",
        "address": "3740 Iowa Ave",
        "coordinates": [
            33.9773064888662,
            -117.339458763599
        ]
    },
    {
        "name": "American Donuts Shop",
        "city": "Riverside",
        "address": "3355 Iowa Ave",
        "coordinates": [
            33.9819717407227,
            -117.34058380127
        ]
    },
    {
        "name": "Bear Tracks Coffee Truck",
        "city": "Riverside",
        "address": "University Of California",
        "coordinates": [
            33.9740520767393,
            -117.325517982244
        ]
    },
    {
        "name": "Lola's Bakery",
        "city": "Riverside",
        "address": "4026 Chicago Ave",
        "coordinates": [
            33.973321,
            -117.347353
        ]
    },
    {
        "name": "Denny's",
        "city": "Riverside",
        "address": "1245 University Ave",
        "coordinates": [
            33.976065,
            -117.3387652
        ]
    },
    {
        "name": "Lucies Locadas",
        "city": "Riverside",
        "address": "1601 University Ave",
        "coordinates": [
            33.97609,
            -117.34644
        ]
    },
    {
        "name": "La Michoacana Ice Cream",
        "city": "Riverside",
        "address": "3961 Chicago Ave",
        "coordinates": [
            33.97415,
            -117.34865
        ]
    },
    {
        "name": "Jamba",
        "city": "Riverside",
        "address": "1242 University Ave",
        "coordinates": [
            33.9750518798828,
            -117.338150024414
        ]
    },
    {
        "name": "Grocery Outlet",
        "city": "Riverside",
        "address": "3981 Chicago Ave",
        "coordinates": [
            33.97398,
            -117.34947
        ]
    },
    {
        "name": "Yogurtland",
        "city": "Riverside",
        "address": "1242 University Ave",
        "coordinates": [
            33.975388,
            -117.338065179466
        ]
    },
    {
        "name": "Bytes",
        "city": "Riverside",
        "address": "900 University Ave",
        "coordinates": [
            33.975467,
            -117.326182
        ]
    },
    {
        "name": "Delicias Del Horno",
        "city": "Riverside",
        "address": "3969 Chicago Ave",
        "coordinates": [
            33.973728,
            -117.349577
        ]
    },
    {
        "name": "IHOP",
        "city": "Riverside",
        "address": "1320 University Ave",
        "coordinates": [
            33.97548,
            -117.34081
        ]
    },
    {
        "name": "R Burgers",
        "city": "Riverside",
        "address": "1666 University Ave",
        "coordinates": [
            33.975212097168,
            -117.347579956055
        ]
    },
    {
        "name": "Casta\u00f1eda's Mexican Food",
        "city": "Riverside",
        "address": "1450 University Ave",
        "coordinates": [
            33.9752768,
            -117.3435086
        ]
    },
    {
        "name": "Hala Produce and Market",
        "city": "Riverside",
        "address": "3375 Iowa Ave",
        "coordinates": [
            33.98185,
            -117.340703
        ]
    },
    {
        "name": "Food4Less",
        "city": "Riverside",
        "address": "3900 Chicago Ave",
        "coordinates": [
            33.973848,
            -117.346931
        ]
    },
    {
        "name": "Circle K",
        "city": "Riverside",
        "address": "1395 Blaine St",
        "coordinates": [
            33.98333,
            -117.34188
        ]
    },
    {
        "name": "Farmer Boys",
        "city": "Riverside",
        "address": "2901 Iowa Ave",
        "coordinates": [
            33.98624332,
            -117.34043791
        ]
    }
]